id,installed,latitude,locked,longitude,name,bikes_count,docks_count,nbEmptyDocks,temporary,terminal_name,install_date,removal_date
334,true,51.505044,false,-0.115851,"Concert Hall Approach 1, South Bank",1,10,9,false,2635,2010-07-26,
250,true,51.489932,false,-0.162727,"Royal Avenue 1, Chelsea",0,10,10,false,3440,2010-07-20,
280,true,51.490083,false,-0.162418,"Royal Avenue 2, Chelsea",0,10,10,false,3462,2010-07-21,
404,true,51.50204238,false,-0.184400221,"Palace Gate, Kensington Gardens",12,13,0,false,1110,2011-03-09,
118,true,51.49582705,false,-0.13547809,"Rochester Row, Westminster",0,13,13,false,3457,2010-07-14,
388,true,51.51070161,false,-0.121723604,"Southampton Street, Strand",3,14,10,false,1228,2011-02-08,
171,true,51.4916156,false,-0.186753859,"Collingham Gardens, Earl's Court",1,14,12,false,3459,2010-07-16,
185,true,51.48805753,false,-0.140741432,"Alderney Street, Pimlico",0,14,12,false,1174,2010-07-17,
200,true,51.51492456,false,-0.066078037,"LMU Commercial Road, Whitechapel",0,14,12,false,1105,2010-07-18,
240,true,51.50545935,false,-0.10569204,"Colombo Street, Southwark",0,14,14,false,3472,2010-07-20,
381,true,51.51953043,false,-0.13577731,"Charlotte Street, Fitzrovia",0,14,14,false,2669,2011-01-28,
289,true,51.50923022,false,-0.151296092,"South Audley Street, Mayfair",15,15,0,false,3493,2010-07-22,
419,true,51.485821,false,-0.149004,"Chelsea Bridge, Pimlico",8,15,4,false,22160,2011-06-22,
405,true,51.49418566,false,-0.18267094,"Gloucester Road Station, South Kensington",5,15,10,false,1107,2011-03-09,
356,true,51.494412,false,-0.173881,"South Kensington Station, South Kensington",4,15,11,false,2685,2010-10-25,
393,true,51.51733427,false,-0.103604248,"Snow Hill, Farringdon",0,15,11,false,2699,2011-02-24,
324,true,51.49652013,false,-0.101384068,"Ontario Street, Elephant & Castle",0,15,13,false,1200,2010-07-23,
382,true,51.50935171,false,-0.14744969,"Farm Street, Mayfair",2,15,13,false,2678,2011-02-08,
395,true,51.492462,false,-0.159919,"Cadogan Gardens, Chelsea",1,15,14,false,2695,2011-02-28,
402,true,51.52289229,false,-0.171681991,"Penfold Street, Marylebone",1,15,14,false,10625,2011-03-08,
82,true,51.514274,false,-0.111257,"Chancery Lane, Holborn",0,15,15,false,3453,2010-07-13,
95,true,51.5208417,false,-0.097340162,"Aldersgate Street, Barbican",0,15,15,false,1065,2010-07-14,
165,true,51.517932,false,-0.183716959,"Orsett Terrace, Bayswater",0,15,15,false,2585,2010-07-16,
173,true,51.50486,false,-0.113001,"Waterloo Road, South Bank",0,15,15,false,1176,2010-07-16,
203,true,51.51821864,false,-0.100791005,"West Smithfield Rotunda, Farringdon",0,15,15,false,1040,2010-07-18,
256,true,51.51362054,false,-0.116764211,"Houghton Street, Strand",0,15,15,false,3484,2010-07-21,
261,true,51.5134891,false,-0.191351186,"Princes Square, Bayswater",0,15,15,false,3491,2010-07-21,
377,true,51.50535447,false,-0.113656543,"Waterloo Bridge, South Bank",0,15,15,false,2648,2011-01-17,
384,true,51.496481,false,-0.192404,"Marloes Road, Kensington",0,15,15,false,3505,2011-02-03,
99,true,51.51457763,false,-0.158264483,"Old Quebec Street, Marylebone",16,16,0,false,1085,2010-07-14,
257,true,51.52248185,false,-0.154907218,"Westminster University, Marylebone",14,16,1,false,1194,2010-07-21,
315,true,51.52536703,false,-0.153463612,"The Tennis Courts, The Regent's Park",15,16,1,false,1199,2010-07-23,
646,true,51.49886563,false,-0.137424571,"Buckingham Gate, Westminster",14,16,1,false,200178,2013-10-18,
21,true,51.53007835,false,-0.13884627,"Hampstead Road (Cartmel), Euston",14,16,2,false,3426,2010-07-06,
292,true,51.49888404,false,-0.165471605,"Montpelier Street, Knightsbridge",14,16,2,false,1206,2010-07-22,
56,true,51.52058381,false,-0.154701411,"Paddington Street, Marylebone",12,16,3,false,1033,2010-07-10,
386,true,51.51352755,false,-0.130110822,"Moor Street, Soho",6,16,8,false,3504,2011-02-03,
367,true,51.5173721,false,-0.1642075,"Harrowby Street, Marylebone",6,16,9,false,2680,,
528,true,51.507326,false,-0.145827,"Clarges Street, Mayfair",7,16,9,false,200088,2012-02-09,
554,true,51.513548,false,-0.005659,"Aberfeldy Street, Poplar",3,16,10,false,200078,,
148,true,51.49211134,false,-0.138364847,"Tachbrook Street, Victoria",3,16,12,false,965,,
201,true,51.5225965,false,-0.161113413,"Dorset Square, Marylebone",4,16,12,false,1162,2010-07-18,
49,true,51.50706909,false,-0.145904427,"Curzon Street, Mayfair",3,16,13,false,3437,2010-07-10,
186,true,51.51733558,false,-0.175810943,"South Wharf Road, Paddington",3,16,13,false,1167,2010-07-17,
192,true,51.51251523,false,-0.133201961,"Wardour Street, Soho",2,16,13,false,1163,2010-07-17,
259,true,51.490959,false,-0.1532331,"Bourne Street, Belgravia",3,16,13,false,1180,2010-07-21,
397,true,51.51348,false,-0.17977,"Devonshire Terrace, Bayswater",0,16,13,false,1227,2011-03-02,
131,true,51.53300545,false,-0.136792671,"Eversholt Street , Camden Town",2,16,14,false,1005,2010-07-15,
217,true,51.51615461,false,-0.082422399,"Wormwood Street, Liverpool Street",0,16,14,false,2587,2010-07-19,
232,true,51.51501025,false,-0.112753217,"Carey Street, Holborn",1,16,14,false,1139,2010-07-20,
40,true,51.52127071,false,-0.0755789,"Commercial Street, Shoreditch",0,16,15,false,1083,2010-07-08,
164,true,51.515607,false,-0.183118788,"Cleveland Gardens, Bayswater",1,16,15,false,1178,2010-07-16,
221,true,51.49481649,false,-0.13045856,"Horseferry Road, Westminster",0,16,15,false,1170,2010-07-19,
337,true,51.51108452,false,-0.197524944,"Pembridge Villas, Notting Hill",1,16,15,false,2589,2010-07-26,
396,true,51.51809,false,-0.163609,"Shouldham Street, Marylebone",1,16,15,false,2693,2011-03-02,
403,true,51.51689296,false,-0.158249929,"George Place Mews, Marylebone",1,16,15,false,10630,2011-03-08,
7,true,51.53430039,false,-0.1680743,"Charlbert Street, St. John's Wood",0,16,16,false,3422,2010-07-04,
23,true,51.51943538,false,-0.119123345,"Red Lion Square, Holborn",0,16,16,false,3421,2010-07-06,
34,true,51.5341235,false,-0.129386874,"Pancras Road, King's Cross",0,16,16,false,3428,2010-07-07,
46,true,51.507131,false,-0.06691,"Nesham Street, Wapping",0,16,16,false,1031,2010-07-09,
72,true,51.52352001,false,-0.108340165,"Farringdon Lane, Clerkenwell",0,16,16,false,3432,2010-06-19,
87,true,51.51646835,false,-0.079684557,"Devonshire Square, Liverpool Street",0,16,16,false,3438,2010-07-13,
161,true,51.49234577,false,-0.141334487,"Guildhouse Street, Victoria",0,16,16,false,3478,2010-07-16,
283,true,51.51440928,false,-0.118478757,"Kingsway, Covent Garden",0,16,16,false,1141,2010-07-21,
294,true,51.488226,false,-0.135635511,"St. George's Square, Pimlico",0,16,16,false,1195,2010-07-22,
306,true,51.51816295,false,-0.135025698,"Rathbone Street, Fitzrovia",0,16,16,false,3497,2010-07-22,
340,true,51.51444134,false,-0.087587447,"Bank of England Museum, Bank",0,16,16,false,1201,2010-07-27,
451,true,51.504719,false,-0.063531,"Hermitage Court, Wapping",0,16,16,false,200021,2012-01-02,
517,true,51.532513,false,-0.033085,"Ford Road, Old Ford",17,17,0,false,200027,2012-01-17,
180,true,51.5129118,false,-0.153645496,"North Audley Street, Mayfair",16,17,1,false,1126,2010-07-16,
277,true,51.50315739,false,-0.191496313,"Kensington Church Street, Kensington",14,17,2,false,1143,2010-07-21,
459,true,51.535179,false,-0.03338,"Gunmakers Lane, Old Ford",15,17,2,false,200014,,
514,true,51.516204,false,-0.155525,"Portman Square, Marylebone",10,17,7,false,200008,2012-02-02,
348,true,51.51217033,false,-0.150481272,"Grosvenor Square, Mayfair",9,17,8,false,10627,2010-09-15,
74,true,51.48591714,false,-0.124469948,"Vauxhall Cross, Vauxhall",2,17,10,false,1000,2010-07-12,
224,true,51.51031,false,-0.18740235,"Queensway, Kensington Gardens",4,17,13,false,1150,2010-07-20,
467,true,51.523538,false,-0.030556,"Southern Grove, Bow",2,17,13,false,200168,2012-01-12,
110,true,51.53304322,false,-0.172528678,"Wellington Road, St. John's Wood",1,17,15,false,1055,2010-07-14,
426,true,51.493072,false,-0.129925,"Vincent Street, Pimlico",2,17,15,false,22161,2011-07-12,
455,true,51.49447,false,-0.014409,"East Ferry Road, Cubitt Town",0,17,15,false,200031,2012-01-09,
38,true,51.4973875,false,-0.197245586,"Abingdon Villas, Kensington",1,17,16,false,3442,2010-07-08,
78,true,51.52486887,false,-0.099489485,"Sadlers Sports Centre, Finsbury",0,17,16,false,3433,2010-07-12,
120,true,51.51573534,false,-0.093080779,"The Guildhall, Guildhall",1,17,16,false,1044,2010-07-15,
37,true,51.49159394,false,-0.192369256,"Penywern Road, Earl's Court",0,17,17,false,3444,2010-07-07,
102,true,51.51340693,false,-0.076793375,"Jewry Street, Aldgate",0,17,17,false,1045,2010-07-14,
127,true,51.51700801,false,-0.09388536,"Wood Street, Guildhall",0,17,17,false,1063,2010-07-15,
196,true,51.50368837,false,-0.098497684,"Union Street, The Borough",0,17,17,false,961,2010-07-17,
212,true,51.50658458,false,-0.199004026,"Campden Hill Road, Notting Hill",0,17,17,false,3487,2010-07-19,
265,true,51.51595344,false,-0.169249375,"Southwick Street, Paddington",0,17,17,false,3490,2010-07-21,
297,true,51.49612799,false,-0.106000855,"Geraldine Street, Elephant & Castle",0,17,17,false,3498,2010-07-22,
344,true,51.528246,false,-0.10102611,"Goswell Road (City Uni), Finsbury",0,17,17,false,1222,2010-07-27,
347,true,51.50013942,false,-0.113936001,"Lower Marsh, Waterloo",0,17,17,false,1219,2010-09-06,
353,true,51.49459148,false,-0.134234258,"Greycoat Street , Westminster",0,17,17,false,10623,2010-10-21,
412,true,51.488105,false,-0.110121,"Cleaver Street, Kennington",0,17,17,false,10628,2011-04-05,
565,true,51.521905,false,-0.063386,"Selby Street, Whitechapel",0,17,17,false,200135,,
207,true,51.50135267,false,-0.153194766,"Grosvenor Crescent, Belgravia",18,18,0,false,1169,2010-07-19,
300,true,51.505014,false,-0.17306032,"Serpentine Car Park, Hyde Park",16,18,0,false,1217,2010-07-22,
373,true,51.49980661,false,-0.176415994,"Prince Consort Road, Knightsbridge",18,18,0,false,3499,2011-01-19,
389,true,51.51013066,false,-0.155757901,"Upper Grosvenor Street, Mayfair",17,18,0,false,10621,2011-02-10,
721,true,51.53603947,false,-0.026262677,"Wendon Street, Old Ford",17,18,0,false,300039,2013-11-21,
43,true,51.52026,false,-0.157183945,"Crawford Street, Marylebone",17,18,1,false,1036,2010-07-09,
733,true,51.50542628,false,-0.150817316,"Park Lane, Mayfair",17,18,1,false,300093,2013-11-26,
760,true,51.52526975,false,-0.163795009,"Rossmore Road, Marylebone",15,18,3,false,300071,2014-01-21,
97,true,51.49792478,false,-0.183834706,"Gloucester Road (North), Kensington",14,18,4,false,3447,2010-07-14,
581,true,51.519167,false,-0.147983,"New Cavendish Street, Marylebone",12,18,6,false,200005,2012-03-16,
103,true,51.50472376,false,-0.192538767,"Vicarage Gate, Kensington",10,18,7,false,3441,2010-07-14,
359,true,51.49782999,false,-0.135440826,"Butler Place, Westminster",8,18,9,false,2662,2010-11-05,
188,true,51.5165179,false,-0.164393768,"Nutford Place, Marylebone",6,18,12,false,1112,2010-07-17,
318,true,51.51004801,false,-0.138846453,"Sackville Street, Mayfair",6,18,12,false,1197,2010-07-23,
394,true,51.524826,false,-0.176268,"Aberdeen Place, St. John's Wood",6,18,12,false,2698,,
529,true,51.486892,false,-0.170983,"Manresa Road, Chelsea",5,18,13,false,200010,,
169,true,51.51474612,false,-0.165164288,"Porchester Place, Paddington",4,18,14,false,3477,2010-07-16,
375,true,51.50194596,false,-0.194392952,"Kensington Town Hall, Kensington",4,18,14,false,10632,2010-12-08,
730,true,51.49208492,false,-0.229116862,"Bridge Avenue, Hammersmith",2,18,14,false,300082,2013-11-22,
60,true,51.52644828,false,-0.172190727,"Lisson Grove, St. John's Wood",2,18,15,false,1030,2010-07-10,
129,true,51.5118973,false,-0.137043852,"Golden Square, Soho",3,18,15,false,3451,2010-07-15,
158,true,51.49085368,false,-0.196170309,"Trebovir Road, Earl's Court",1,18,15,false,1113,2010-07-16,
182,true,51.52202903,false,-0.165842551,"Bell Street , Marylebone",1,18,15,false,1166,2010-07-17,
254,true,51.53051587,false,-0.106408455,"Chadwell Street, Angel",1,18,15,false,3471,2010-07-21,
530,true,51.508896,false,-0.012413,"Newby Place, Poplar",0,18,15,false,200146,,
573,true,51.485587,false,-0.18119,"Limerston Street, West Chelsea",3,18,15,false,200001,2012-03-15,
759,true,51.52456169,false,-0.165668686,"Broadley Terrace, Marylebone",3,18,15,false,300072,2014-01-13,
6,true,51.51811784,false,-0.144228881,"Broadcasting House, Marylebone",2,18,16,false,3424,2010-07-04,
79,true,51.511726,false,-0.11385596,"Arundel Street, Temple",1,18,16,false,3455,2017-10-26,
336,true,51.504942,false,-0.115533,"Concert Hall Approach 2, South Bank",2,18,16,false,1212,2010-07-26,
508,true,51.519362,false,-0.074431,"Fournier Street, Whitechapel",0,18,16,false,200157,2012-01-30,
516,true,51.5112,false,-0.014438,"Chrisp Street Market, Poplar",0,18,16,false,200089,2012-02-02,
589,true,51.487196,false,-0.179369,"Drayton Gardens, West Chelsea",2,18,16,false,200060,,
604,true,51.538792,false,-0.138535,"St Martins Close, Camden Town",1,18,16,false,200195,,
10,true,51.50597426,false,-0.092754157,"Park Street, Bankside",0,18,17,false,1024,2010-07-04,
33,true,51.5156,false,-0.070056,"Central House, Aldgate",0,18,17,false,3430,2010-07-07,
53,true,51.5099923,false,-0.143495266,"Grafton Street, Mayfair",0,18,17,false,3431,2010-07-10,
139,true,51.49488108,false,-0.117974901,"Lambeth Road, Vauxhall",0,18,17,false,1078,2010-07-15,
149,true,51.48478899,false,-0.110683213,"Kennington Road Post Office, Oval",0,18,17,false,1073,2010-07-15,
260,true,51.5136846,false,-0.135580879,"Broadwick Street, Soho",0,18,17,false,3489,2010-07-21,
296,true,51.49363156,false,-0.190603326,"Knaresborough Place, Earl's Court",0,18,17,false,200069,2013-08-23,
383,true,51.51310333,false,-0.13121385,"Frith Street, Soho",1,18,17,false,2660,2011-02-02,
430,true,51.48902,false,-0.17524,"South Parade, Chelsea",1,18,17,false,22182,2011-12-22,
537,true,51.51793,false,-0.067937,"Old Montague Street, Whitechapel",0,18,17,false,200239,2012-02-27,
568,true,51.51616,false,-0.18697,"Bishop's Bridge Road West, Bayswater",0,18,17,false,200110,,
693,true,51.464786,false,-0.215618902,"Felsham Road, Putney",0,18,17,false,300019,2013-11-09,
704,true,51.45682071,false,-0.202802098,"Mexfield Road, East Putney",1,18,17,false,200063,2013-11-14,
52,true,51.52295439,false,-0.094934859,"Roscoe Street, St. Luke's",0,18,18,false,1026,2010-07-10,
119,true,51.52589324,false,-0.090847761,"Bath Street, St. Luke's",0,18,18,false,964,2010-07-14,
123,true,51.52836014,false,-0.104724625,"St. John Street, Finsbury",0,18,18,false,992,2010-07-15,
189,true,51.53166681,false,-0.109914711,"Claremont Square, Angel",0,18,18,false,1104,2010-07-17,
244,true,51.51611887,false,-0.128585022,"Earnshaw Street , Covent Garden",0,18,18,false,1145,2010-07-20,
281,true,51.49580589,false,-0.127575233,"Smith Square, Westminster",0,18,18,false,3480,2010-07-21,
325,true,51.50908747,false,-0.129697889,"St. Martin's Street, West End",0,18,18,false,1158,2010-07-23,
349,true,51.51196,false,-0.142783033,"St. George Street, Mayfair",0,18,18,false,1221,2010-09-15,
521,true,51.534137,false,-0.037366,"Driffield Road, Old Ford",18,19,0,false,200030,,
28,true,51.52351808,false,-0.143613641,"Bolsover Street, Fitzrovia",14,19,1,false,1025,2010-07-07,
138,true,51.51227622,false,-0.157436972,"Green Street, Mayfair",16,19,3,false,3464,2010-07-15,
471,true,51.533283,false,-0.028155,"Hewison Street, Old Ford",14,19,4,false,200006,2012-01-17,
609,true,51.46512358,false,-0.157788279,"Sugden Road, Clapham",12,19,6,false,200208,2013-09-25,
168,true,51.50040123,false,-0.195455928,"Argyll Road, Kensington",7,19,11,false,3463,2010-07-16,
204,true,51.52659961,false,-0.112432615,"Margery Street, Clerkenwell",1,19,16,false,3468,2010-07-18,
473,true,51.496137,false,-0.019355,"Millharbour, Millwall",0,19,16,false,22167,2012-01-17,
47,true,51.52334476,false,-0.183846408,"Warwick Avenue Station, Maida Vale",1,19,17,false,1027,2010-07-10,
113,true,51.49646288,false,-0.183289032,"Gloucester Road (Central), South Kensington",2,19,17,false,3435,2010-07-14,
167,true,51.49395092,false,-0.147624377,"Eccleston Place, Victoria",2,19,17,false,3465,,
172,true,51.49121192,false,-0.173715911,"Sumner Place, South Kensington",1,19,17,false,1124,2010-07-16,
310,true,51.4908679,false,-0.116911864,"Black Prince Road, Vauxhall",2,19,17,false,1205,2010-07-23,
9,true,51.5073853,false,-0.096440751,"New Globe Walk, Bankside",1,19,18,false,1015,2010-07-04,
75,true,51.53219984,false,-0.105480698,"Torrens Street, Angel",0,19,18,false,1060,2010-07-12,
178,true,51.48985626,false,-0.141923621,"Warwick Square, Pimlico",0,19,18,false,3460,2010-07-16,
1,true,51.52916347,false,-0.109970527,"River Street , Clerkenwell",0,19,19,false,1023,2010-07-12,
22,true,51.5222641,false,-0.114079481,"Northington Street , Holborn",0,19,19,false,3425,2010-07-06,
81,true,51.52025302,false,-0.141327271,"Great Titchfield Street, Fitzrovia",0,19,19,false,3450,2010-07-13,
89,true,51.5262503,false,-0.123509611,"Tavistock Place, Bloomsbury",0,19,19,false,3439,2010-07-13,
155,true,51.49586666,false,-0.191933711,"Lexham Gardens, Kensington",0,19,19,false,1121,2010-07-16,
275,true,51.52004497,false,-0.092176447,"Barbican Centre, Barbican",0,19,19,false,1191,2010-07-21,
299,true,51.49398524,false,-0.136928582,"Vincent Square, Westminster",0,19,19,false,1196,2010-07-22,
352,true,51.486965,false,-0.116625,"Vauxhall Street, Vauxhall",0,19,19,false,1224,2010-10-11,
509,true,51.517842,false,-0.090075,"Fore Street, Guildhall",0,19,19,false,200253,2012-01-30,
722,true,51.52458353,false,-0.058631453,"Finnis Street, Bethnal Green",0,19,19,false,300041,2013-11-21,
710,true,51.47439218,false,-0.163347594,"Albert Bridge Road, Battersea Park",19,20,0,false,300045,2013-11-15,
428,true,51.499917,false,-0.174554,"Exhibition Road, Knightsbridge",19,20,1,false,22179,2011-10-13,
577,true,51.528869,false,-0.047548,"Globe Town Market, Bethnal Green",15,20,4,false,200247,,
124,true,51.49654462,false,-0.150905245,"Eaton Square, Belgravia",12,20,8,false,1069,2010-07-15,
160,true,51.50663341,false,-0.131773845,"Waterloo Place, St. James's",9,20,10,false,3458,2010-07-16,
694,true,51.46071722,false,-0.216526155,"Putney Rail Station, Putney",6,20,12,false,300033,2013-11-09,
774,true,51.470131,false,-0.20464,"Hurlingham Park, Parsons Green",5,20,13,false,300098,2014-03-31,
208,true,51.52505151,false,-0.166304359,"Mallory Street, Marylebone",5,20,14,false,1175,2010-07-18,
776,true,51.460333,false,-0.167029,"Abyssinia Close, Clapham Junction",6,20,14,false,300099,2014-03-31,
583,true,51.497622,false,-0.125978,"Abingdon Green, Westminster",4,20,15,false,200231,,
592,true,51.5171,false,-0.18377,"Bishop's Bridge Road East, Bayswater",4,20,16,false,200108,,
218,true,51.48971651,false,-0.170194408,"St. Luke's Church, Chelsea",3,20,17,false,3486,2010-07-19,
312,true,51.53088935,false,-0.176770502,"Grove End Road, St. John's Wood",2,20,17,false,1130,2010-07-23,
91,true,51.49368637,false,-0.111014912,"Walnut Tree Walk, Vauxhall",2,20,18,false,1076,2010-07-13,
308,true,51.49907558,false,-0.085666316,"Long Lane , Bermondsey",0,20,18,false,1189,2010-07-22,
358,true,51.516226,false,-0.124826,"High Holborn , Covent Garden",1,20,18,false,1229,2010-11-18,
431,true,51.534474,false,-0.122203,"Crinan Street, King's Cross",2,20,18,false,22183,2011-12-08,
58,true,51.52452699,false,-0.079248081,"New Inn Yard, Shoreditch",0,20,19,false,1032,2010-07-10,
107,true,51.52600832,false,-0.096317627,"Finsbury Leisure Centre, St. Luke's",1,20,19,false,1049,2010-07-14,
134,true,51.504904,false,-0.06797,"Wapping High Street, Wapping",0,20,19,false,1039,2010-07-15,
264,true,51.52644342,false,-0.109256828,"Tysoe Street, Clerkenwell",0,20,19,false,1146,2010-07-21,
290,true,51.518268,false,-0.17110323,"St Mary's Hospital, Paddington",1,20,19,false,3496,2010-07-22,
332,true,51.49334336,false,-0.194757949,"Nevern Place, Earl's Court",1,20,19,false,1210,2010-07-26,
370,true,51.520205,false,-0.174593,"Paddington Green, Paddington",0,20,19,false,2670,2010-12-06,
454,true,51.487679,false,-0.021582,"Napier Avenue, Millwall",0,20,19,false,200046,2012-01-09,
611,true,51.50646524,false,-0.208486599,"Princedale Road , Holland Park",0,20,19,false,200067,2013-09-26,
627,true,51.4687905,false,-0.158230901,"Holden Street, Battersea",1,20,19,false,200007,2013-10-16,
162,true,51.51760685,false,-0.121328408,"Southampton Place, Holborn",0,20,20,false,1123,2010-07-16,
284,true,51.49914063,false,-0.112031483,"Lambeth North Station, Waterloo",0,20,20,false,1117,2010-07-21,
479,true,51.527152,false,-0.058005,"Pott Street, Bethnal Green",0,20,20,false,200156,2012-01-19,
527,true,51.503802,false,-0.215808,"Hansard Mews, Holland Park",0,20,20,false,200154,2012-02-09,
557,true,51.51601,false,-0.0985,"King Edward Street, St Pauls",0,20,20,false,200203,,
76,true,51.52559505,false,-0.144083893,"Longford Street, The Regent's Park",21,21,0,false,976,2010-07-12,
502,true,51.53341,false,-0.049591815,"Bonner Gate, Victoria Park",19,21,0,false,200241,2019-07-24,
380,true,51.50686435,false,-0.150666888,"Stanhope Gate, Mayfair",20,21,1,false,3506,2011-01-27,
392,true,51.49942855,false,-0.179702476,"Imperial College, Knightsbridge",20,21,1,false,1220,2011-02-17,
756,true,51.47515398,false,-0.159169801,"Prince of Wales Drive, Battersea Park",18,21,1,false,300073,2014-01-20,
350,true,51.5017154373867,false,-0.1798541843891,"Queen's Gate, Kensington Gardens",19,21,2,false,1231,2010-09-29,
181,true,51.49941247,false,-0.152317537,"Belgrave Square, Belgravia",16,21,5,false,3473,2010-07-16,
531,true,51.530326,false,-0.042744,"Twig Folly Bridge, Mile End",14,21,6,false,200167,2012-02-09,
210,true,51.51681444,false,-0.151926305,"Hinde Street, Marylebone",11,21,8,false,3476,2010-07-19,
596,true,51.472817,false,-0.199783,"Parson's Green , Parson's Green",7,21,14,false,200237,,
610,true,51.48256792,false,-0.172078187,"Danvers Street, West Chelsea",6,21,14,false,200222,2013-09-25,
769,true,51.473611,false,-0.191803,"Sandilands Road, Walham Green",7,21,14,false,300001,2014-03-04,
298,true,51.50227992,false,-0.074189225,"Curlew Street, Shad Thames",4,21,15,false,1213,2010-07-22,
695,true,51.53638435,false,-0.102757578,"Islington Green, Angel",6,21,15,false,300031,2013-11-11,
762,true,51.50070305,false,-0.129698963,"Storey's Gate, Westminster",6,21,15,false,200202,2014-02-10,
777,true,51.4619230679,false,-0.165297856693,"Limburg Road, Clapham Junction",4,21,16,false,300100,2014-07-25,
125,true,51.50069491,false,-0.094524319,"Borough High Street, The Borough",0,21,17,false,996,2010-07-15,
600,true,51.481747,false,-0.124642,"South Lambeth Road, Vauxhall",3,21,17,false,200133,,
152,true,51.49217002,false,-0.101536865,"Hampton Street, Walworth",0,21,18,false,1118,2010-07-15,
607,true,51.468814,false,-0.210279,"Putney Bridge Station, Fulham",2,21,18,false,200125,,
617,true,51.47107905,false,-0.207842908,"Elysium Place, Fulham",3,21,18,false,200028,2013-09-30,
116,true,51.51449962,false,-0.141423695,"Little Argyll Street, West End",2,21,19,false,995,2010-07-14,
190,true,51.48997562,false,-0.132845681,"Rampayne Street, Pimlico",0,21,19,false,1106,2010-07-17,
520,true,51.526041,false,-0.047218,"Bancroft Road, Bethnal Green",1,21,19,false,200234,,
83,true,51.50963938,false,-0.131510949,"Panton Street, West End",0,21,20,false,3452,2010-07-13,
135,true,51.52326004,false,-0.104708922,"Clerkenwell Green, Clerkenwell",0,21,20,false,1053,2010-07-15,
379,true,51.51431171,false,-0.200838199,"Turquoise Island, Notting Hill",1,21,20,false,2682,2011-01-27,
472,true,51.529452,false,-0.027616,"Malmesbury Road, Bow",0,21,20,false,200019,2012-01-17,
478,true,51.521889,false,-0.04667,"Stepney Green Station, Stepney",0,21,20,false,200012,2012-01-19,
543,true,51.509591,false,-0.204666,"Lansdowne Walk, Ladbroke Grove",1,21,20,false,200065,,
546,true,51.517428,false,-0.107987,"New Fetter Lane, Holborn",0,21,20,false,200044,,
584,true,51.51244,false,-0.19096,"Ilchester Gardens, Bayswater",0,21,20,false,200086,,
593,true,51.531066,false,-0.11934,"Northdown Street, King's Cross",0,21,20,false,200058,,
696,true,51.48728535,false,-0.217995921,"Charing Cross Hospital, Hammersmith",1,21,20,false,300018,2013-11-11,
732,true,51.50630441,false,-0.087262995,"Duke Street Hill, London Bridge",1,21,20,false,300083,2013-11-26,
13,true,51.51991453,false,-0.136039674,"Scala Street, Fitzrovia",0,21,21,false,970,2010-07-05,
26,true,51.52728093,false,-0.11829517,"Ampton Street , Clerkenwell",0,21,21,false,1019,2010-07-06,
44,true,51.51073687,false,-0.144165239,"Bruton Street, Mayfair",0,21,21,false,1034,2010-07-09,
106,true,51.51410514,false,-0.147301667,"Woodstock Street, Mayfair",0,21,21,false,1042,2010-07-14,
112,true,51.51580998,false,-0.105270275,"Stonecutter Street, Holborn",0,21,21,false,1061,2010-07-14,
263,true,51.51422502,false,-0.080660083,"St. Mary Axe, Aldgate",0,21,21,false,1184,2010-07-21,
319,true,51.52702563,false,-0.088542771,"Baldwin Street, St. Luke's",0,21,21,false,3500,2010-07-23,
466,true,51.534464,false,-0.076341,"Whiston Road, Haggerston",0,21,21,false,200158,2012-01-12,
538,true,51.508981,false,-0.00699,"Naval Row, Blackwall",0,21,21,false,200050,,
560,true,51.511624,false,-0.205921,"Ladbroke Grove Central, Ladbroke Grove",0,21,21,false,200015,,
562,true,51.51746,false,-0.12335,"Bury Place, Holborn",0,21,21,false,200074,2012-02-29,
645,true,51.50173215,false,-0.100292412,"Great Suffolk Street, The Borough",0,21,21,false,200200,2013-10-18,
657,true,51.4996806,false,-0.221791552,"Blythe Road West, Shepherd's Bush",0,21,21,false,200220,2013-10-24,
771,true,51.509224,false,-0.216016,"Rifle Place, Avondale",0,21,21,false,300007,2014-03-05,
233,true,51.50777049,false,-0.130699733,"Pall Mall East, West End",21,22,0,false,1153,2010-07-20,
726,true,51.47505096,false,-0.150908371,"Alfreda Street, Battersea Park",21,22,1,false,300047,2013-11-22,
114,true,51.52451738,false,-0.158963647,"Park Road (Baker Street), The Regent's Park",17,22,2,false,1050,2010-07-14,
432,true,51.496957,false,-0.173894,"Exhibition Road Museums, South Kensington",19,22,3,false,22158,2011-10-24,
121,true,51.51891348,false,-0.156166631,"Baker Street, Marylebone",15,22,6,false,1086,2010-07-15,
692,true,51.54211855,false,-0.028941601,"Cadogan Close, Victoria Park",7,22,12,false,200112,2013-11-11,
576,true,51.497304,false,-0.022793,"Alpha Grove, Millwall",2,22,14,false,200109,,
128,true,51.49536226,false,-0.185296516,"Emperor's Gate, South Kensington",2,22,19,false,1116,2010-07-15,
255,true,51.52557531,false,-0.179592915,"Clifton Road, Maida Vale",0,22,20,false,1147,2010-07-21,
587,true,51.50964,false,-0.08497,"Monument Street, Monument",0,22,20,false,200101,2012-03-22,
712,true,51.51854104,false,-0.034903714,"Mile End Stadium, Mile End",2,22,20,false,300056,2013-11-18,
742,true,51.51510818,false,-0.208565479,"Blenheim Crescent, Ladbroke Grove",2,22,20,false,300090,2013-11-28,
29,true,51.513735,false,-0.193487,"Hereford Road, Bayswater",0,22,21,false,1016,2010-07-07,
101,true,51.51155322,false,-0.0929401,"Queen Street 1, Bank",0,22,21,false,999,2010-07-14,
267,true,51.49206037,false,-0.132224622,"Regency Street, Westminster",0,22,21,false,1155,2010-07-21,
272,true,51.50144456,false,-0.110699309,"Baylis Road, Waterloo",1,22,21,false,1133,2010-07-21,
328,true,51.53114,false,-0.086016,"New North Road 2, Hoxton",1,22,21,false,2641,2010-07-26,
439,true,51.5338,false,-0.118677,"Killick Street, King's Cross",0,22,21,false,200053,2012-01-04,
463,true,51.534776,false,-0.071881,"Thurtle Road, Haggerston",0,22,21,false,200093,,
561,true,51.518369,false,-0.043371,"Rectory Square, Stepney",1,22,21,false,200037,2012-02-29,
595,true,51.493267,false,-0.21985,"Hammersmith Road, Hammersmith",0,22,21,false,200142,,
713,true,51.54100708,false,-0.14326094,"Hawley Crescent, Camden Town",1,22,21,false,200122,2013-11-18,
715,true,51.51563007,false,-0.049067243,"Aylward Street, Stepney",0,22,21,false,300049,2013-11-19,
16,true,51.52635795,false,-0.125979294,"Cartwright Gardens , Bloomsbury",0,22,22,false,1010,2010-07-05,
327,true,51.53095,false,-0.085603,"New North Road 1, Hoxton",0,22,22,false,1128,2010-07-26,
371,true,51.49775,false,-0.10988,"King Edward Walk, Waterloo",0,22,22,false,2639,2010-12-07,
488,true,51.506946,false,-0.058681,"Reardon Street, Wapping",0,22,22,false,22176,2012-01-22,
544,true,51.526153,false,-0.102208,"Percival Street, Finsbury",0,22,22,false,200051,,
623,true,51.46193072,false,-0.180791784,"Nantes Close, Wandsworth",0,22,22,false,200186,2013-10-07,
643,true,51.5190427,false,-0.204764421,"All Saints' Road, Portobello",0,22,22,false,300026,2013-10-17,
649,true,51.48180515,false,-0.18027465,"World's End Place, West Chelsea",0,22,22,false,300009,2013-10-21,
660,true,51.49087074,false,-0.206029743,"West Kensington Station, West Kensington",0,22,22,false,300020,2013-10-25,
341,true,51.50810309,false,-0.12602103,"Craven Street, Strand",20,23,2,false,1160,2010-07-27,
242,true,51.52200801,false,-0.151359288,"Beaumont Street, Marylebone",19,23,3,false,3482,2010-07-20,
709,true,51.46321128,false,-0.215550761,"Montserrat Road , Putney",14,23,8,false,200205,2013-11-15,
487,true,51.511811,false,-0.025626,"Canton Street, Poplar",0,23,18,false,22175,2012-01-30,
727,true,51.47569809,false,-0.20587627,"Chesilton Road, Fulham",3,23,20,false,300054,2013-11-22,
550,true,51.521564,false,-0.039264,"Harford Street, Mile End",2,23,21,false,200102,,
720,true,51.48724429,false,-0.205279052,"Star Road, West Kensington",1,23,21,false,300038,2013-11-21,
758,true,51.51787005,false,-0.201005397,"Westbourne Park Road, Portobello",0,23,21,false,300057,2014-01-08,
122,true,51.52111369,false,-0.078869751,"Norton Folgate, Liverpool Street",0,23,22,false,1068,2010-07-15,
227,true,51.52891573,false,-0.115480888,"Great Percy Street, Clerkenwell",0,23,22,false,3470,2010-07-20,
506,true,51.517475,false,-0.075855,"Bell Lane, Liverpool Street",0,23,22,false,200036,2012-01-30,
641,true,51.49824168,false,-0.117495865,"Archbishop's Park, Waterloo",0,23,22,false,300025,2013-10-16,
650,true,51.51687069,false,-0.213872396,"St. Mark's Road, North Kensington",0,23,22,false,300034,2013-10-22,
4,true,51.53005939,false,-0.120973687,"St. Chad's Street, King's Cross",0,23,23,false,1013,2010-07-04,
176,true,51.51791921,false,-0.188098863,"Gloucester Terrace, Bayswater",0,23,23,false,1173,2010-07-16,
287,true,51.52367314,false,-0.128377673,"Bedford Way, Bloomsbury",0,23,23,false,1156,2010-07-21,
435,true,51.488852,false,-0.105593,"Kennington Station, Kennington",0,23,23,false,22170,2011-12-08,
741,true,51.5129814,false,-0.219486603,"Freston Road, Avondale",0,23,23,false,300085,2013-11-28,
803,true,51.5054099403,false,-0.0983410884509,"Southwark Street, Bankside",0,23,23,false,300238,2016-06-01,
553,true,51.535678,false,-0.062546,"Regent's Row , Haggerston",23,24,0,false,200064,,
664,true,51.474376,false,-0.155442787,"Austin Road, Battersea Park",22,24,1,false,300013,2013-10-28,
535,true,51.537349,false,-0.147154,"Gloucester Avenue, Camden Town",21,24,2,false,200145,,
545,true,51.539957,false,-0.145246,"Arlington Road, Camden Town",21,24,3,false,200070,,
485,true,51.531127,false,-0.048017,"Old Ford Road, Bethnal Green",15,24,6,false,22173,2012-01-22,
329,true,51.53589283,false,-0.160854428,"Prince Albert Road, The Regent's Park",12,24,11,false,2636,2010-07-26,
827,true,51.479601,false,-0.11147178,"Cranmer Road, Stockwell",0,24,14,false,300247,2018-02-05,
69,true,51.5262363,false,-0.134407652,"Euston Road, Euston",8,24,15,false,983,2010-07-11,
226,true,51.50844614,false,-0.131961389,"Charles II Street, West End",9,24,15,false,3488,2010-07-20,
229,true,51.50654321,false,-0.123179697,"Whitehall Place, Strand",5,24,16,false,1151,2010-07-20,
307,true,51.50990837,false,-0.187842717,"Black Lion Gate, Kensington Gardens",7,24,16,false,1157,2010-07-22,
618,true,51.47625965,false,-0.193254007,"Eel Brook Common, Walham Green",6,24,16,false,300003,2013-09-30,
130,true,51.50950627,false,-0.075459482,"Tower Gardens , Tower",4,24,17,false,1071,2010-07-15,
183,true,51.482362,false,-0.13612398,"Riverlight North, Nine Elms",7,24,17,false,1165,2010-07-17,
338,true,51.51175646,false,-0.119643424,"Wellington Street , Strand",5,24,17,false,1202,2010-07-26,
755,true,51.48512191,false,-0.174971902,"The Vale, Chelsea",7,24,17,false,300058,2014-01-06,
145,true,51.50074359,false,-0.202759212,"Ilchester Place, Kensington",6,24,18,false,1115,2010-07-15,
363,true,51.5291212008901,false,-0.171185284853,"Lord's, St. John's Wood",5,24,19,false,2665,2010-11-16,
559,true,51.501391,false,-0.205991,"Abbotsbury Road, Holland Park",5,24,19,false,200111,,
615,true,51.4768851,false,-0.215895601,"Finlay Street, Fulham",4,24,19,false,200029,2013-09-27,
143,true,51.4968865,false,-0.161203828,"Pont Street, Knightsbridge",3,24,20,false,1114,2010-07-15,
223,true,51.49148474,false,-0.090220911,"Rodney Road , Walworth",3,24,20,false,3481,2010-07-20,
234,true,51.53450449,false,-0.106992706,"Liverpool Road (N1 Centre), Angel",2,24,20,false,1081,2010-07-20,
754,true,51.5129006,false,-0.214762686,"Grenfell Road, Avondale",3,24,20,false,300067,2014-01-06,
11,true,51.52395143,false,-0.122502346,"Brunswick Square, Bloomsbury",0,24,21,false,1022,2010-07-05,
376,true,51.49188409,false,-0.125674815,"Millbank Tower, Pimlico",1,24,21,false,2683,2011-01-10,
444,true,51.52568,false,-0.055312,"Bethnal Green Garden, Bethnal Green",3,24,21,false,200047,2012-01-07,
452,true,51.505697,false,-0.070542,"St. Katharine's Way, Tower",2,24,21,false,200049,2012-01-09,
616,true,51.48102131,false,-0.209973497,"Aintree Street, Fulham",3,24,21,false,200098,,
716,true,51.51542791,false,-0.02356501,"Stainsby Road , Poplar",1,24,21,false,300048,2013-11-19,
746,true,51.4795738,false,-0.17903854,"Lots Road, West Chelsea",2,24,21,false,300076,2013-12-02,
757,true,51.48795853,false,-0.187404506,"Harcourt Terrace, West Brompton",1,24,21,false,300069,2014-01-07,
782,true,51.483911,false,-0.19760944,"Halford Road, West Kensington",3,24,21,false,300210,2015-11-02,
807,true,51.5212,false,-0.20888818,"Bevington Road West, North Kensington",2,24,21,false,300236,2016-06-23,
199,true,51.51048489,false,-0.082989638,"Great Tower Street, Monument",0,24,22,false,1080,2010-07-18,
276,true,51.50930161,false,-0.084985356,"Lower Thames Street, Monument",0,24,22,false,1098,2010-07-21,
301,true,51.51475963,false,-0.148105415,"Marylebone Lane, Marylebone",0,24,22,false,1152,2010-07-22,
558,true,51.493978,false,-0.127554,"Page Street, Westminster",0,24,22,false,200048,2014-05-09,
626,true,51.48438657,false,-0.20481514,"Normand Park, West Kensington",1,24,22,false,300008,2013-10-16,
631,true,51.4795017,false,-0.141770709,"Battersea Park Road, Nine Elms",2,24,22,false,200183,2013-10-08,
662,true,51.48498496,false,-0.167919869,"Phene Street, Chelsea",1,24,22,false,200189,2013-10-27,
690,true,51.47047503,false,-0.152130083,"Stanley Grove, Battersea",2,24,22,false,200199,2013-11-08,
836,true,51.541596,false,-0.12544145,"York Way, Kings Cross",1,24,22,false,300235,,
30,true,51.52915444,false,-0.093421615,"Windsor Terrace, Hoxton",0,24,23,false,1029,2010-07-07,
62,true,51.4907579,false,-0.106323685,"Cotton Garden Estate, Kennington",0,24,23,false,990,2010-07-10,
311,true,51.51918144,false,-0.140485596,"Foley Street, Fitzrovia",1,24,23,false,3494,2010-07-23,
321,true,51.49785559,false,-0.081608045,"Bermondsey Street, Bermondsey",0,24,23,false,2637,2010-07-23,
399,true,51.52261762,false,-0.071653961,"Brick Lane Market, Shoreditch",0,24,23,false,2687,2011-03-08,
401,true,51.528187,false,-0.075375,"Columbia Road, Shoreditch",1,24,23,false,2701,2011-03-08,
441,true,51.495656,false,-0.114605,"Sail Street, Vauxhall",0,24,23,false,200039,2012-01-04,
468,true,51.521564,false,-0.022694,"Cantrell Road, Bow",0,24,23,false,200150,2012-01-12,
484,true,51.528828,false,-0.013258,"Bromley High Street, Bow",0,24,23,false,22172,2012-01-23,
501,true,51.522561,false,-0.054883,"Cephas Street, Bethnal Green",0,24,23,false,200073,2012-01-24,
523,true,51.51549,false,-0.013475,"Langdon Park, Poplar",0,24,23,false,200160,,
663,true,51.51323001,false,-0.211593602,"Clarendon Road, Avondale",0,24,23,false,200124,2013-10-27,
729,true,51.47893931,false,-0.208485293,"St. Peter's Terrace, Fulham",1,24,23,false,300043,2013-11-25,
747,true,51.48796408,false,-0.161765173,"Ormonde Gate, Chelsea",1,24,23,false,300089,2013-12-02,
799,true,51.4976984561,false,-0.137598896295,"Kings Gate House, Westminster",0,24,23,false,300202,2016-06-02,
820,true,51.492807,false,-0.091938,"Victory Place, Walworth",0,24,23,false,300239,2016-12-15,
41,true,51.520955,false,-0.083493552,"Pindar Street, Liverpool Street",0,24,24,false,1084,2010-07-08,
70,true,51.53136059,false,-0.117069978,"Calshot Street , King's Cross",0,24,24,false,1066,2010-07-11,
86,true,51.48947903,false,-0.115156562,"Sancroft Street, Vauxhall",0,24,24,false,3434,2010-07-13,
100,true,51.49043573,false,-0.122806861,"Albert Embankment, Vauxhall",0,24,24,false,1059,2010-07-14,
142,true,51.49372451,false,-0.198286569,"West Cromwell Road, Earl's Court",0,24,24,false,1001,2010-07-15,
323,true,51.523196,false,-0.083067,"Clifton Street, Shoreditch",0,24,24,false,3501,2010-07-23,
372,true,51.515208,false,-0.117863,"Sardinia Street, Holborn",0,24,24,false,2649,2010-12-07,
442,true,51.510101,false,-0.211358,"Walmer Road, Avondale",0,24,24,false,200035,2012-01-07,
453,true,51.508447,false,-0.055167,"Garnet Street, Shadwell",0,24,24,false,200045,2012-01-09,
515,true,51.500088,false,-0.211316,"Russell Gardens, Olympia",0,24,24,false,200080,,
613,true,51.50403821,false,-0.217400093,"Woodstock Grove, Shepherd's Bush",0,24,24,false,200214,2013-09-26,
691,true,51.47946386,false,-0.195777222,"Erin Close, Walham Green",0,24,24,false,200184,2013-11-18,
702,true,51.52868155,false,-0.065550321,"Durant Street, Bethnal Green",0,24,24,false,200213,2013-11-13,
725,true,51.491327,false,-0.096518684,"Walworth Square, Walworth",0,24,24,false,300050,2019-07-17,
751,true,51.51612862,false,-0.120909408,"Newton Street, Covent Garden",0,24,24,false,300074,2013-12-05,
773,true,51.511891,false,-0.107349,"Tallis Street, Temple",0,24,24,false,300096,2014-03-31,
368,true,51.50024195,false,-0.15934065,"Harriet Street, Knightsbridge",24,25,1,false,2681,2010-12-01,
700,true,51.47696496,false,-0.174347066,"Battersea Church Road, Battersea",8,25,15,false,200201,2013-11-13,
780,true,51.474665,false,-0.18316517,"Imperial Wharf Station, Sands End",9,25,16,false,300070,2015-08-13,
637,true,51.45787019,false,-0.174691623,"Spencer Park, Wandsworth Common",2,25,20,false,200191,2013-10-16,
88,true,51.51858757,false,-0.132053392,"Bayley Street , Bloomsbury",1,25,21,false,1006,2010-07-13,
117,true,51.49288067,false,-0.114934001,"Lollard Street, Vauxhall",4,25,21,false,998,2010-07-14,
703,true,51.51505991,false,-0.10534448,"St. Bride Street, Holborn",0,25,21,false,200094,2013-11-13,
48,true,51.51248445,false,-0.099141408,"Godliman Street, St. Paul's",1,25,23,false,971,2010-07-10,
84,true,51.51593725,false,-0.111778348,"Breams Buildings, Holborn",1,25,23,false,3449,2010-07-13,
243,true,51.49096258,false,-0.139625122,"Gloucester Street, Pimlico",0,25,23,false,1103,2010-07-20,
293,true,51.49815779,false,-0.209494128,"Kensington Olympia Station, Olympia",2,25,23,false,1214,2010-07-22,
464,true,51.51417,false,-0.052099,"St. Mary & St. Michael Church, Stepney",1,25,23,false,200082,2012-01-11,
480,true,51.5128711,false,-0.0389866,"Flamborough Street, Limehouse",0,25,23,false,200115,2012-01-19,
748,true,51.53727795,false,-0.079201849,"Hertford Road, De Beauvoir Town",0,25,23,false,300092,2013-12-04,
766,true,51.45752945,false,-0.192165613,"Ram Street, Wandsworth",2,25,23,false,200079,2014-02-20,
829,true,51.469217,false,-0.11268674,"Wynne Road, Stockwell",1,25,23,false,300230,2018-02-01,
187,true,51.49247977,false,-0.178433004,"Queen's Gate (South), South Kensington",0,25,24,false,1172,2010-07-17,
279,true,51.51862243,false,-0.176645823,"North Wharf Road, Paddington",1,25,24,false,1108,2010-07-21,
339,true,51.5333196,false,-0.1117812,"Risinghill Street, Angel",0,25,24,false,1127,2010-07-26,
651,true,51.48089844,false,-0.183853573,"Thorndike Close, West Chelsea",1,25,24,false,300030,2013-10-22,
697,true,51.53639219,false,-0.112721065,"Charlotte Terrace, Angel",0,25,24,false,200129,2013-11-12,
831,true,51.466232,false,-0.11317995,"St John's Crescent, Brixton",0,25,24,false,300215,2018-02-07,
835,true,51.516785,false,-0.10494775,"Farringdon Street, Holborn",0,25,24,false,300220,,
177,true,51.49616092,false,-0.140947636,"Ashley Place, Victoria",0,25,25,false,1122,2010-07-16,
653,true,51.47084722,false,-0.17070367,"Simpson Street, Clapham Junction",0,25,25,false,200196,2013-10-23,
838,true,51.518093,false,-0.0914017,"Fore Street Avenue, Guildhall",0,25,25,false,300222,2018-10-11,
834,true,51.477966,false,-0.14785703,"Gas Holders, Battersea Park",24,26,2,false,300216,2018-06-20,
64,true,51.50946212,false,-0.124749274,"William IV Street, Strand",4,26,20,false,1028,2010-07-10,
679,true,51.47453545,false,-0.170210533,"Orbel Street, Battersea",6,26,20,false,200114,2013-11-05,
45,true,51.522511,false,-0.162298,"Boston Place, Marylebone",5,26,21,false,1035,2010-07-09,
239,true,51.52443845,false,-0.138019439,"Warren Street Station, Euston",3,26,22,false,1090,2010-07-20,
105,true,51.51552971,false,-0.190240716,"Westbourne Grove, Bayswater",3,26,23,false,1041,2010-07-14,
668,true,51.49422354,false,-0.236769936,"Ravenscourt Park Station, Hammersmith",3,26,23,false,300037,2013-10-30,
737,true,51.47993289,false,-0.19411695,"Fulham Broadway, Walham Green",3,26,23,false,300086,2013-11-27,
628,true,51.46881971,false,-0.184318843,"William Morris Way, Sands End",1,26,24,false,200062,2013-10-10,
151,true,51.51213691,false,-0.201554966,"Chepstow Villas, Notting Hill",1,26,25,false,1120,2010-07-15,
326,true,51.53266186,false,-0.099981142,"Graham Street, Angel",0,26,25,false,1131,2010-07-23,
400,true,51.517703,false,-0.154106,"George Street, Marylebone",1,26,25,false,1225,2011-03-08,
606,true,51.504199,false,-0.210941,"Addison Road, Holland Park",1,26,25,false,200218,,
687,true,51.49760804,false,-0.21145598,"Maclise Road, Olympia",1,26,25,false,200216,2013-11-07,
761,true,51.48321729,false,-0.211860644,"Humbolt Road, Fulham",0,26,25,false,300068,2014-01-15,
817,true,51.4813354746,false,-0.138212295869,"Riverlight South, Nine Elms",1,26,25,false,300232,2016-06-03,
15,true,51.51772703,false,-0.127854211,"Great Russell Street, Bloomsbury",0,26,26,false,988,2010-07-05,
17,true,51.5216612,false,-0.109006325,"Hatton Wall, Holborn",0,26,26,false,1008,2010-07-06,
68,true,51.52059681,false,-0.116688468,"Theobald's Road , Holborn",0,26,26,false,975,2010-07-11,
77,true,51.52341837,false,-0.124121774,"Russell Square Station, Bloomsbury",0,26,26,false,978,2010-07-12,
96,true,51.53095071,false,-0.078505384,"Falkirk Street, Hoxton",0,26,26,false,1047,2010-07-14,
320,true,51.49357351,false,-0.139956043,"Queen Mother Sports Centre, Victoria",0,26,26,false,1148,2010-07-23,
322,true,51.526293,false,-0.073955,"Palissy Street, Shoreditch",0,26,26,false,3502,2010-07-23,
461,true,51.516,false,-0.038775,"Aston Street, Stepney",0,26,26,true,200013,2012-01-11,
548,true,51.498386,false,-0.107913,"Westminster Bridge Road, Elephant & Castle",0,26,26,false,200076,,
563,true,51.499286,false,-0.009152,"Preston's Road, Cubitt Town",0,26,26,false,200232,,
590,true,51.53256,false,-0.16862,"Greenberry Street, St.John's Wood",0,26,26,false,200236,,
686,true,51.48814438,false,-0.222456468,"Beryl Road, Hammersmith",0,26,26,false,200097,2013-11-07,
740,true,51.51092871,false,-0.214594781,"Sirdar Road, Avondale",0,26,26,false,300084,2013-11-28,
166,true,51.50185512,false,-0.159237081,"Seville Street, Knightsbridge",25,27,0,false,1177,2010-07-16,
818,true,51.501513,false,-0.12382322,"Westminster Pier, Westminster",21,27,0,false,300249,2019-07-24,
153,true,51.511933,false,-0.174411,"Bayswater Road, Hyde Park",23,27,1,false,1096,2010-07-15,
248,true,51.50645179,false,-0.170279555,"Triangle Car Park, Hyde Park",22,27,1,false,1088,2010-07-20,
821,true,51.4835074867,false,-0.147714557371,"Battersea Power Station, Battersea Park",23,27,1,false,300221,2017-02-17,
540,true,51.528302,false,-0.144466,"Albany Street, The Regent's Park",23,27,4,false,200134,,
366,true,51.5109192966489,false,-0.1511263847351,"Millennium Hotel, Mayfair",21,27,6,false,1230,2010-11-25,
534,true,51.531864,false,-0.066035,"Goldsmith's Row, Haggerston",17,27,9,false,200159,,
750,true,51.4710956,false,-0.157850096,"Culvert Road, Battersea",11,27,15,false,300080,2013-12-05,
446,true,51.528936,false,-0.055894,"York Hall, Bethnal Green",10,27,17,false,200042,2012-01-07,
90,true,51.53301907,false,-0.139174593,"Harrington Square 1, Camden Town",9,27,18,false,1038,2010-07-13,
278,true,51.5034938,false,-0.07962099,"Tooley Street, Bermondsey",2,27,20,false,1142,2010-07-21,
597,true,51.473471,false,-0.20782,"Fulham Park Road, Fulham",4,27,21,false,200229,,
783,true,51.5403115,false,-0.021630359,"Monier Road, Hackney Wick",4,27,21,false,300213,2015-11-26,
806,true,51.5372405623,false,-0.124807385707,"Handyside Street, King's Cross",5,27,22,false,300241,2016-09-01,
639,true,51.48357068,false,-0.202038682,"Coomer Place, West Kensington",3,27,23,false,200081,2013-10-15,
54,true,51.52174785,false,-0.094475072,"Golden Lane, Barbican",1,27,24,false,967,2010-07-10,
804,true,51.5346677396,false,-0.125078652873,"Good's Way, King's Cross",3,27,24,false,300243,2016-03-31,
163,true,51.4931848,false,-0.167894973,"Sloane Avenue, Knightsbridge",2,27,25,false,3461,2010-07-16,
556,true,51.502661,false,-0.021596,"Heron Quays DLR, Canary Wharf",0,27,25,false,200138,,
5,true,51.49313,false,-0.156876,"Sedding Street, Sloane Square",0,27,26,false,3420,2010-07-04,
50,true,51.52867339,false,-0.087459376,"East Road, Hoxton",1,27,26,false,1054,2010-07-10,
63,true,51.53089041,false,-0.089782579,"Murray Grove , Hoxton",0,27,26,false,989,2010-07-10,
220,true,51.49066456,false,-0.166485083,"Chelsea Green, Chelsea",1,27,26,false,1179,2010-07-19,
360,true,51.49675303,false,-0.138733562,"Howick Place, Westminster",1,27,26,false,2666,2010-11-05,
497,true,51.526149,false,-0.027396845,"Merchant Street, Bow",0,27,26,false,200242,2012-01-24,
526,true,51.503143,false,-0.008428,"Lancaster Drive, Blackwall",0,27,26,false,200143,,
552,true,51.511542,false,-0.056667,"Watney Street, Shadwell",0,27,26,false,200149,,
655,true,51.48294452,false,-0.219346128,"Crabtree Lane, Fulham",1,27,26,false,200221,2013-10-24,
677,true,51.46866929,false,-0.146544642,"Heath Road, Battersea",0,27,26,false,200023,2013-11-03,
798,true,51.5301998755,false,-0.122299440803,"Birkenhead Street, King's Cross",1,27,26,false,300212,2016-06-01,
830,true,51.469202,false,-0.11902256,"Sidney Road, Stockwell",0,27,26,false,300229,2018-02-07,
18,true,51.51477076,false,-0.12221963,"Drury Lane, Covent Garden",0,27,27,false,1007,2010-07-06,
197,true,51.50556905,false,-0.111606696,"Stamford Street, South Bank",0,27,27,false,962,2010-07-17,
295,true,51.50029631,false,-0.092762704,"Swan Street, The Borough",0,27,27,false,1216,2010-07-22,
437,true,51.488124,false,-0.120903,"Vauxhall Walk, Vauxhall",0,27,27,false,200056,2012-01-05,
588,true,51.52959,false,-0.0801,"Hoxton Street, Hoxton",0,27,27,false,200071,2012-03-05,
647,true,51.50035306,false,-0.217515071,"Richmond Way, Shepherd's Bush",0,27,27,false,200181,2013-10-21,
620,true,51.47518024,false,-0.167160736,"Surrey Lane, Battersea",27,28,0,false,300010,2013-10-01,
625,true,51.47761941,false,-0.149551631,"Queen's Circus, Battersea Park",27,28,0,false,200190,2013-10-08,
36,true,51.50173726,false,-0.184980612,"De Vere Gardens, Kensington",27,28,1,false,3446,2010-07-07,
111,true,51.5100172,false,-0.157275636,"Park Lane , Hyde Park",23,28,1,false,1037,2010-07-14,
680,true,51.47768469,false,-0.170329317,"Westbridge Road, Battersea",23,28,5,false,200210,2013-11-05,
302,true,51.466907,false,-0.216573,"Putney Pier, Wandsworth",13,28,11,false,3492,2010-07-22,
541,true,51.506613,false,-0.142844,"Green Park Station, Mayfair",14,28,13,false,200096,,
812,true,51.5487311915,false,-0.0226065549321,"Here East North, Queen Elizabeth Olympic Park",10,28,15,false,300217,2016-07-20,
20,true,51.527326,false,-0.13605286,"Drummond Street , Euston",11,28,17,false,993,2018-12-13,
150,true,51.49705603,false,-0.168917077,"Holy Trinity Brompton, Knightsbridge",6,28,22,false,1002,2010-07-15,
640,true,51.47286577,false,-0.148059277,"Silverthorne Road, Battersea",5,28,22,false,200179,2013-10-17,
714,true,51.47311696,false,-0.137235175,"Stewart's Road, Wandsworth Road",6,28,22,false,300055,2013-11-19,
670,true,51.46718562,false,-0.152248582,"Ashley Crescent, Battersea",5,28,23,false,200169,2013-10-31,
736,true,51.50659035,false,-0.216104479,"Queensdale Road, Shepherd's Bush",4,28,23,false,300088,2013-11-26,
632,true,51.47053858,false,-0.163041605,"Sheepcote Lane, Battersea",4,28,24,false,200176,2013-10-08,
683,true,51.46506424,false,-0.163750945,"Dorothy Road, Clapham Junction",2,28,24,false,200119,2013-11-06,
735,true,51.46489445,false,-0.17302926,"Grant Road East, Clapham Junction",2,28,25,false,200120,2013-11-25,
94,true,51.49506109,false,-0.085814489,"Bricklayers Arms, Borough",2,28,26,false,1070,2010-07-13,
445,true,51.52388,false,-0.065076,"Cheshire Street, Bethnal Green",2,28,26,false,200003,2012-01-07,
630,true,51.47073264,false,-0.126994068,"Clarence Walk, Stockwell",1,28,26,false,200194,2013-10-11,
42,true,51.53099181,false,-0.093903825,"Wenlock Road , Hoxton",0,28,27,false,979,2010-07-08,
67,true,51.51882555,false,-0.108028472,"Hatton Garden, Holborn",0,28,27,false,985,2010-07-11,
450,true,51.515975,false,-0.053177,"Jubilee Street, Stepney",0,28,27,false,200002,2012-01-09,
458,true,51.504749,false,-0.057544,"Wapping Lane, Wapping",0,28,27,false,200034,2012-01-11,
599,true,51.485743,false,-0.223616,"Manbre Road, Hammersmith",0,28,27,false,200235,,
638,true,51.46663393,false,-0.169821175,"Falcon Road, Clapham Junction",1,28,27,false,300014,2013-10-15,
665,true,51.46108367,false,-0.191722864,"Smugglers Way, Wandsworth",0,28,27,false,200113,2013-10-28,
688,true,51.46095151,false,-0.20066766,"Northfields, Wandsworth",1,28,27,false,200204,2013-11-08,
724,true,51.45799126,false,-0.184806157,"Alma Road, Wandsworth",1,28,27,false,300046,2013-11-22,
739,true,51.48176572,false,-0.185273723,"Hortensia Road, West Brompton",1,28,27,false,300091,2013-11-28,
793,true,51.528279,false,-0.11955857,"Cromer Street, Bloomsbury",0,28,27,false,300205,2016-03-31,
809,true,51.5162778834,false,-0.118272991635,"Lincoln's Inn Fields, Holborn",0,28,27,false,300240,2016-07-04,
826,true,51.496863,false,-0.1429434,"Allington Street, Victoria",0,28,27,false,300242,2017-07-20,
351,true,51.529423,false,-0.097122,"Macclesfield Rd, St Lukes",0,28,28,false,1226,2010-10-11,
465,true,51.53558,false,-0.08249,"Pitfield Street North,Hoxton",0,28,28,false,200152,2012-04-05,
629,true,51.45995384,false,-0.190184054,"Morie Street, Wandsworth",0,28,28,false,200187,2013-10-11,
636,true,51.46706414,false,-0.193502076,"South Park, Sands End",0,28,28,false,200180,2013-10-15,
779,true,51.514449,false,-0.077178979,"Houndsditch, Aldgate",0,28,28,false,200072,2015-06-26,
790,true,51.541793,false,-0.00481,"Stratford Station, Stratford",0,28,28,false,300234,2016-01-13,
816,true,51.5465327935,false,-0.0205975904647,"Here East South, Queen Elizabeth Olympic Park",0,28,28,false,300219,2017-03-09,
108,true,51.49812559,false,-0.132102166,"Abbey Orchard Street, Westminster",15,29,13,false,3429,2010-07-14,
728,true,51.46199911,false,-0.206240805,"Putney Bridge Road, East Putney",7,29,21,false,300044,2013-11-26,
457,true,51.542138,false,-0.145393,"Castlehaven Road, Camden Town",6,29,23,false,200016,2012-01-10,
141,true,51.51530805,false,-0.147203711,"Chapel Place, Marylebone",5,29,24,false,1003,2010-07-15,
424,true,51.490491,false,-0.149186,"Ebury Bridge, Pimlico",4,29,25,false,22159,2011-12-22,
476,true,51.489096,false,-0.009205,"Stebondale Street, Cubitt Town",0,29,26,false,200009,2012-01-19,
219,true,51.49016361,false,-0.19039362,"Bramham Gardens, Earl's Court",0,29,27,false,1183,2010-07-19,
268,true,51.49320445,false,-0.144132875,"Belgrave Road, Victoria",0,29,27,false,1087,2010-07-21,
505,true,51.520398,false,-0.026768,"Ackroyd Drive, Bow",0,29,27,false,200038,2012-01-30,
652,true,51.51148696,false,-0.218190203,"Evesham Street, Avondale",0,29,27,false,300022,2013-10-15,
245,true,51.4853572,false,-0.142207481,"Grosvenor Road, Pimlico",1,29,28,false,1140,2010-07-20,
605,true,51.520331,false,-0.163667,"Seymour Place, Marylebone",0,29,28,false,200198,,
622,true,51.50748124,false,-0.205535908,"Lansdowne Road, Ladbroke Grove",1,29,28,false,200172,2013-10-04,
656,true,51.46841875,false,-0.199135704,"Broomhouse Lane, Parsons Green",0,29,28,false,200040,2013-10-24,
745,true,51.47816972,false,-0.18243547,"Upcerne Road, West Chelsea",1,29,28,false,300075,2013-11-29,
801,true,51.5052241745,false,-0.0980318118664,"Lavington Street, Bankside",0,29,28,false,300208,2016-03-24,
51,true,51.52671796,false,-0.104298194,"Finsbury Library , Finsbury",0,29,29,false,986,2010-07-10,
571,true,51.506256,false,-0.218337,"Westfield Southern Terrace ,Shepherd's Bush",0,29,29,false,200061,2012-03-01,
743,true,51.46079243,false,-0.212607684,"Oxford Road, Putney",0,29,29,false,300078,2013-11-29,
796,true,51.524,false,-0.12640984,"Coram Street, Bloomsbury",0,29,29,false,300201,2016-02-29,
512,true,51.532091,false,-0.06142,"Pritchard's Road, Bethnal Green",30,30,0,false,200083,2012-02-01,
658,true,51.47729232,false,-0.16478637,"Ethelburga Estate, Battersea Park",27,30,1,false,300005,2013-11-06,
800,true,51.4811219398,false,-0.149035374873,"Sopwith Way, Battersea Park",24,30,5,false,300248,2016-03-04,
612,true,51.46925984,false,-0.141812513,"Wandsworth Rd, Isley Court, Wandsworth Road",9,30,20,false,200175,2013-09-27,
685,true,51.46067005,false,-0.198735357,"Osiers Road, Wandsworth",7,30,22,false,200219,2013-11-07,
701,true,51.47287627,false,-0.176267008,"Vicarage Crescent, Battersea",7,30,23,false,200077,2013-11-13,
781,true,51.495898,false,-0.173009,"Victoria & Albert Museum, South Kensington",7,30,23,false,300032,2015-11-02,
237,true,51.5097860151,false,-0.0681619805156,"Dock Street, Wapping",3,30,26,false,3467,2010-07-22,
398,true,51.502319,false,-0.200742,"Holland Park, Kensington",4,30,26,false,10631,2011-03-02,
678,true,51.46231278,false,-0.211468596,"Esmond Street, Putney",4,30,26,false,200170,2013-11-05,
195,true,51.50724437,false,-0.106237501,"Milroy Walk, South Bank",1,30,27,false,959,2010-07-17,
252,true,51.5046364,false,-0.116542278,"Jubilee Gardens, South Bank",2,30,27,false,1111,2010-07-21,
331,true,51.52085887,false,-0.089887855,"Bunhill Row, Moorgate",2,30,27,false,1211,2010-07-26,
648,true,51.46904022,false,-0.19627483,"Peterborough Road, Sands End",3,30,27,false,200171,2013-10-21,
767,true,51.45705988,false,-0.200806304,"Santos Road, Wandsworth",3,30,27,false,200177,2014-02-26,
814,true,51.4714330677,false,-0.123670735702,"Clapham Road, Lingham Street, Stockwell",3,30,27,false,300245,2016-06-02,
832,true,51.464019,false,-0.11578197,"Ferndale Road, Brixton",1,30,27,false,200240,2018-02-07,
839,true,51.508033,false,-0.10682363,"Sea Containers, South Bank",0,30,27,false,200144,2018-12-12,
225,true,51.50935342,false,-0.196422,"Notting Hill Gate Station, Notting Hill",0,30,28,false,1182,2010-07-20,
253,true,51.53404294,false,-0.086379717,"Shoreditch Park, Hoxton",2,30,28,false,1051,2010-07-21,
443,true,51.515256,false,-0.058641,"Philpot Street, Whitechapel",0,30,28,false,200033,2012-01-07,
770,true,51.491026,false,-0.209121,"Gwendwr Road, West Kensington",2,30,28,false,300097,2014-03-06,
810,true,51.5067252868,false,-0.0988072461627,"Tate Modern, Bankside",0,30,28,false,300237,2016-06-03,
170,true,51.52784273,false,-0.108068155,"Hardwick Street, Clerkenwell",0,30,29,false,1057,2010-07-16,
209,true,51.49358391,false,-0.165101392,"Denyer Street, Knightsbridge",1,30,29,false,3454,2010-07-19,
387,true,51.49369988,false,-0.121394101,"Fire Brigade Pier, Vauxhall",0,30,29,false,2703,2011-02-07,
518,true,51.528224,false,-0.037471,"Antill Road, Mile End",0,30,29,false,200041,,
569,true,51.53213,false,-0.08299,"Pitfield Street Central, Hoxton",0,30,29,false,200248,,
608,true,51.491093,false,-0.216493,"Colet Gardens, Hammersmith",0,30,29,false,200224,,
797,true,51.5293,false,-0.12827903,"Ossulston Street, Somers Town",0,30,29,false,300211,2016-03-01,
19,true,51.52505093,false,-0.131161087,"Taviton Street, Bloomsbury",0,30,30,false,1009,2010-07-06,
216,true,51.49094565,false,-0.181190899,"Old Brompton Road, South Kensington",0,30,30,false,3479,2010-07-19,
236,true,51.51838043,false,-0.073438925,"Fashion Street, Whitechapel",0,30,30,false,3483,2010-07-20,
357,true,51.520994,false,-0.139016,"Howland Street, Fitzrovia",0,30,30,false,2691,2010-10-26,
504,true,51.496454,false,-0.009506,"St. John's Park, Cubitt Town",0,30,30,false,200243,2012-01-30,
675,true,51.46348914,false,-0.182126248,"Usk Road, Clapham Junction",0,30,30,false,200126,2013-11-01,
689,true,51.45922541,false,-0.180884959,"Spanish Road, Clapham Junction",0,30,30,false,200106,2013-11-08,
744,true,51.46745485,false,-0.172293499,"Ingrave Street, Clapham Junction",0,30,30,false,300077,2013-11-29,
795,true,51.527068,false,-0.13186102,"Euston Square Gardens, Euston",0,30,30,false,300203,2016-02-29,
507,true,51.528692,false,-0.059091,"Clarkson Street, Bethnal Green",15,31,16,false,200131,2012-01-30,
231,true,51.49396755,false,-0.17873226,"Queen's Gate (Central), South Kensington",5,31,26,false,1089,2010-07-20,
586,true,51.490645,false,-0.014582,"Mudchute DLR, Cubitt Town",1,31,29,false,200092,2012-03-15,
734,true,51.46230566,false,-0.175407201,"Plough Terrace, Clapham Junction",0,31,29,false,300094,2013-11-26,
230,true,51.50669284,false,-0.103137426,"Poured Lines, Bankside",0,31,30,false,1144,2010-07-20,
423,true,51.49456127,false,-0.15393398,"Eaton Square (South), Belgravia",1,31,30,false,22164,2011-07-05,
475,true,51.499041,false,-0.020157,"Lightermans Road, Millwall",0,31,30,false,200004,2012-01-17,
270,true,51.4863434,false,-0.122492418,"Kennington Lane Rail Bridge, Vauxhall",0,31,31,false,1190,2010-07-21,
706,true,51.50215353,false,-0.083632928,"Snowsfields, London Bridge",0,31,31,false,200193,2013-11-14,
711,true,51.48335692,false,-0.216305546,"Everington Street, Fulham",0,31,31,false,300028,2013-11-18,
271,true,51.53583617,false,-0.156285395,"London Zoo,  The Regent's Park",26,32,5,false,1136,2010-07-21,
317,true,51.49679128,false,-0.093913472,"Dickens Square, Borough",3,32,28,false,1208,2010-07-23,
214,true,51.52683806,false,-0.130504336,"Endsleigh Gardens, Euston",2,32,29,false,1079,2010-07-19,
291,true,51.48483991,false,-0.138089062,"Claverton Street, Pimlico",2,32,29,false,1135,2010-07-22,
684,true,51.45475251,false,-0.195197203,"Neville Gill Close, Wandsworth",0,32,30,false,200188,2013-11-07,
238,true,51.5233534,false,-0.175116099,"Frampton Street, Paddington",0,32,31,false,1099,2010-07-20,
802,true,51.4765900593,false,-0.118256789081,"Albert Square, Stockwell",0,32,31,false,300209,2016-06-02,
828,true,51.473874,false,-0.11258096,"Normandy Road, Stockwell",0,32,31,false,300225,2018-02-05,
3,true,51.52128377,false,-0.084605692,"Christopher Street, Liverpool Street",0,32,32,false,1012,2010-07-04,
57,true,51.52334672,false,-0.120202614,"Guilford Street , Bloomsbury",0,32,32,false,974,2010-07-10,
136,true,51.51196176,false,-0.097441687,"Queen Victoria Street, St. Paul's",0,32,32,false,1048,2010-07-15,
578,true,51.527607,false,-0.057133,"Hollybush Gardens, Bethnal Green",0,32,32,false,200244,2012-02-28,
633,true,51.48959104,false,-0.209378594,"Vereker Road, West Kensington",0,32,32,false,200116,2013-10-10,
707,true,51.49021762,false,-0.215087092,"Barons Court Station, West Kensington",0,32,32,false,200197,2013-11-14,
456,true,51.538071,false,-0.144664,"Parkway, Camden Town",20,33,13,false,200118,2012-01-10,
345,true,51.48802358,false,-0.166878535,"Flood Street, Chelsea",6,33,27,false,1218,2010-07-27,
621,true,51.46086446,false,-0.187427294,"Wandsworth Town Station, Wandsworth",4,33,27,false,200091,2013-10-04,
764,true,51.46239255,false,-0.16829214,"St. John's Road, Clapham Junction",5,33,27,false,200185,2014-02-17,
411,true,51.49337264,false,-0.09968067,"Walworth Road, Elephant & Castle",2,33,28,false,10629,,
708,true,51.46161068,false,-0.21614583,"Disraeli Road, Putney",1,33,30,false,200217,2013-11-15,
27,true,51.51382102,false,-0.107927706,"Bouverie Street, Temple",1,33,31,false,1021,2010-07-07,
440,true,51.483145,false,-0.113134,"Kennington Oval, Oval",2,33,31,false,200032,2012-01-04,
511,true,51.511066,false,-0.053558,"Sutton Street, Shadwell",1,33,31,false,200256,2012-01-30,
61,true,51.49738251,false,-0.089446947,"Great Dover Street, The Borough",0,33,32,false,1017,2010-07-10,
433,true,51.524564,false,-0.116279,"Wren Street, Holborn",0,33,32,false,22169,2011-12-08,
460,true,51.516196,false,-0.029138,"Burdett Road, Mile End",0,33,32,false,200123,2012-01-11,
533,true,51.528222,false,-0.069743,"Wellington Row, Bethnal Green",0,33,32,false,200165,,
542,true,51.514115,false,-0.033828,"Salmon Lane, Limehouse",0,33,32,false,200147,,
55,true,51.51707521,false,-0.086685542,"Finsbury Circus, Liverpool Street",0,33,33,false,984,2010-07-10,
140,true,51.52096262,false,-0.085634242,"Finsbury Square , Moorgate",0,33,33,false,1056,2010-07-15,
156,true,51.49443626,false,-0.092921165,"New Kent Road, The Borough",0,33,33,false,966,2010-07-16,
335,true,51.51196803,false,-0.120718759,"Tavistock Street, Covent Garden",0,33,33,false,1207,2010-07-26,
483,true,51.51328,false,-0.047784,"Albert Gardens, Stepney",0,33,33,false,22166,2012-01-20,
519,true,51.518811,false,-0.011662,"Teviot Street, Poplar",0,33,33,false,200254,,
594,true,51.513875,false,-0.117774,"Kingsway Southbound, Strand",0,33,33,false,200226,2012-03-14,
634,true,51.49434708,false,-0.215804559,"Brook Green South, Brook Green",0,33,33,false,300002,2013-10-14,
775,true,51.496664,false,-0.223868,"Little Brook Green, Brook Green",0,33,33,false,300101,2014-03-31,
303,true,51.50295379,false,-0.158456089,"Albert Gate, Hyde Park",31,34,0,false,1132,2010-07-22,
184,true,51.52071513,false,-0.14521173,"Portland Place, Marylebone",33,34,1,false,1164,2010-07-17,
719,true,51.53642464,false,-0.054162264,"Victoria Park Road, Hackney Central",28,34,3,false,300011,2013-11-20,
251,true,51.518908,false,-0.079249,"Brushfield Street, Liverpool Street",0,34,29,false,1161,2010-07-21,
667,true,51.5015946,false,-0.222293381,"Shepherd's Bush Road North, Shepherd's Bush",4,34,29,false,200209,2013-10-30,
104,true,51.51159481,false,-0.077121322,"Crosswall, Tower",2,34,30,false,991,2010-07-14,
784,true,51.546326,false,-0.00993526,"East Village, Queen Elizabeth Olympic Park",3,34,30,false,300200,2016-01-14,
288,true,51.49236962,false,-0.147478734,"Elizabeth Bridge, Victoria",1,34,31,false,1138,2010-07-22,
489,true,51.513074,false,-0.064094,"Christian Street, Whitechapel",2,34,31,false,22177,2012-01-20,
654,true,51.48267821,false,-0.117661574,"Ashmole Estate, Oval",0,34,31,false,200223,2013-10-23,
330,true,51.51641749,false,-0.179135079,"Eastbourne Mews, Paddington",2,34,32,false,1203,2010-07-26,
71,true,51.5154186,false,-0.098850915,"Newgate Street , St. Paul's",0,34,33,false,1074,2010-07-12,
115,true,51.51423368,false,-0.073537654,"Braham Street, Aldgate",0,34,33,false,1062,2010-07-14,
211,true,51.49464523,false,-0.158105512,"Cadogan Place, Knightsbridge",0,34,34,false,3469,2010-07-19,
481,true,51.487129,false,-0.009001,"Saunders Ness Road, Cubitt Town",6,35,18,false,200022,2012-01-19,
536,true,51.53385,false,-0.06992,"Queensbridge Road, Haggerston",12,35,23,false,200024,,
659,true,51.511934,false,-0.10307894,"Blackfriars Station, St. Paul's",0,35,28,false,200212,2013-10-25,
698,true,51.53908372,false,-0.070329419,"Shoreditch Court, Haggerston",6,35,28,false,200121,2013-11-12,
286,true,51.5272947,false,-0.174653609,"St. John's Wood Road, St. John's Wood",5,35,30,false,1187,2010-07-21,
449,true,51.511088,false,-0.057159,"Shadwell Station, Shadwell",0,35,31,false,200020,2012-01-07,
815,true,51.5000891978,false,-0.116628700672,"Lambeth Palace Road, Waterloo",4,35,31,false,300231,2016-05-04,
787,true,51.546805,false,-0.01469126,"Timber Lodge, Queen Elizabeth Olympic Park",0,35,32,false,300227,2016-01-04,
146,true,51.48836528,false,-0.129361842,"Vauxhall Bridge , Pimlico",1,35,33,false,1046,2010-07-15,
676,true,51.47787084,false,-0.126874471,"Hartington Road, Stockwell",2,35,33,false,200207,2013-11-04,
772,true,51.47250956,false,-0.122831913,"Binfield Road, Stockwell",1,35,33,false,300015,2014-04-02,
24,true,51.51908011,false,-0.124678402,"British Museum, Bloomsbury",0,35,34,false,981,2010-07-06,
154,true,51.50379168,false,-0.11282408,"Waterloo Station 3, Waterloo",1,35,34,false,1072,,
262,true,51.49874469,false,-0.103132904,"LSBU (Borough Road), Elephant & Castle",0,35,35,false,1095,2010-07-21,
191,true,51.50311799,false,-0.153520935,"Hyde Park Corner, Hyde Park",31,36,0,false,1075,2010-07-17,
213,true,51.50274025,false,-0.149569201,"Wellington Arch, Hyde Park",32,36,1,false,1109,2010-07-19,
343,true,51.53692216,false,-0.150181444,"London Zoo Car Park, The Regent's Park",27,36,8,false,1188,2010-07-27,
811,true,51.5057030357,false,-0.0277727426235,"Westferry Circus, Canary Wharf",1,36,24,false,300228,2016-07-26,
570,true,51.503083,false,-0.017676,"Upper Bank Street, Canary Wharf",0,36,29,false,200099,2012-03-03,
572,true,51.539099,false,-0.141728,"Greenland Road, Camden Town",5,36,30,false,200026,,
448,true,51.50623,false,-0.02296,"Fisherman's Walk West, Canary Wharf",1,36,31,false,22165,2012-01-07,
174,true,51.512529,false,-0.115163,"Strand, Strand",3,36,33,false,1100,2010-07-16,
522,true,51.525941,false,-0.036017,"Clinton Road, Mile End",2,36,33,false,200161,,
31,true,51.52953709,false,-0.083353323,"Fanshaw Street, Hoxton",1,36,34,false,3427,2010-07-07,
436,true,51.51824,false,-0.11655,"Red Lion Street, Holborn",1,36,34,false,22171,2011-12-08,
503,true,51.520893,false,-0.051394,"Cleveland Way, Stepney",0,36,34,false,200250,2012-01-25,
579,true,51.511246,false,-0.093051,"Queen Street 2, Bank",0,36,34,false,200128,,
644,true,51.48373225,false,-0.223852256,"Rainville Road, Hammersmith",2,36,34,false,200182,2013-10-20,
673,true,51.46517078,false,-0.18038939,"Hibbert Street, Battersea",1,36,34,false,300051,2013-11-01,
477,true,51.49109,false,-0.018716,"Spindrift Avenue, Millwall",0,36,35,false,200018,2012-01-19,
494,true,51.50196,false,-0.016251,"South Quay East, Canary Wharf",1,36,35,false,200233,2012-01-24,
499,true,51.519265,false,-0.021345,"Furze Green, Bow",0,36,35,false,200011,2012-01-24,
601,true,51.514767,false,-0.225787,"BBC White City, White City",1,36,35,false,200136,,
642,true,51.46916161,false,-0.174485792,"Fawcett Close, Battersea",1,36,35,false,200192,2013-10-16,
206,true,51.518154,false,-0.062697,"New Road 1 , Whitechapel",0,36,36,false,1171,2010-07-18,
235,true,51.49571828,false,-0.110889274,"Kennington Road  , Vauxhall",0,36,36,false,1154,2010-07-20,
274,true,51.49671237,false,-0.20528437,"Warwick Road, Olympia",0,36,36,false,1134,2010-07-21,
314,true,51.50088934,false,-0.083159352,"Tyers Gate, Bermondsey",0,36,36,false,3485,2010-07-23,
374,true,51.50402794,false,-0.11386436,"Waterloo Station 1, Waterloo",0,36,36,false,2696,2010-12-07,
580,true,51.48692917,false,-0.102996299,"Doddington Grove, Kennington",0,36,36,false,200084,2014-02-12,
157,true,51.50039792,false,-0.193068385,"Wright's Lane, Kensington",31,37,4,false,1094,2010-07-16,
768,true,51.46134382,false,-0.159322467,"Clapham Common North Side, Clapham Common",31,37,4,false,300065,2014-02-27,
749,true,51.53932857,false,-0.074284675,"Haggerston Road, Haggerston",7,37,28,false,300081,2013-12-04,
354,true,51.506767,false,-0.123702,"Northumberland Avenue, Strand",7,37,30,false,1097,,
635,true,51.48606206,false,-0.214428378,"Greyhound Road, Hammersmith",5,37,31,false,200215,2013-10-14,
202,true,51.51236389,false,-0.06954201,"Leman Street, Aldgate",1,37,34,false,1102,2010-07-18,
486,true,51.525645,false,-0.069543,"Granby Street, Shoreditch",1,37,34,false,22174,2012-01-23,
661,true,51.51632095,false,-0.202608612,"All Saints Church, Portobello",2,37,34,false,300023,2013-10-27,
420,true,51.504043,false,-0.105312,"Southwark Station 1, Southwark",1,37,35,false,22162,2011-06-28,
731,true,51.47727637,false,-0.189210466,"Michael Road, Walham Green",0,37,35,false,300095,2013-11-25,
738,true,51.47514228,false,-0.187278987,"Imperial Road, Sands End",2,37,35,false,300087,2013-11-27,
333,true,51.50860544,false,-0.193764092,"Palace Gardens Terrace, Notting Hill",1,37,36,false,2633,2010-07-26,
813,true,51.4878074485,false,-0.122759625866,"New Spring Gardens Walk, Vauxhall",0,37,36,false,300224,2016-07-04,
2,true,51.49960695,false,-0.197574246,"Phillimore Gardens, Kensington",0,37,37,false,1018,2010-07-08,
73,true,51.52572618,false,-0.088486188,"Old Street Station, St. Luke's",0,37,37,false,1064,2010-07-12,
93,true,51.53440868,false,-0.109025404,"Cloudesley Road, Angel",0,37,37,false,2586,2010-07-13,
524,true,51.511654,false,-0.179668,"Lancaster Gate , Bayswater",10,38,26,false,200017,2012-02-06,
425,true,51.533379,false,-0.139159,"Harrington Square 2, Camden Town",8,38,30,false,22181,2011-07-07,
313,true,51.51734403,false,-0.138072691,"Wells Street, Fitzrovia",1,38,36,false,3495,2010-07-23,
598,true,51.494499,false,-0.228188,"Southerton Road, Hammersmith",1,38,36,false,200166,2017-08-01,
666,true,51.49610093,false,-0.208158259,"Olympia Way, Olympia",1,38,36,false,300004,2013-10-29,
132,true,51.52364804,false,-0.074754872,"Bethnal Green Road, Shoreditch",1,38,37,false,973,2010-07-15,
273,true,51.50613324,false,-0.114686385,"Belvedere Road 1, South Bank",0,38,38,false,1186,2010-07-21,
819,true,51.50621,false,-0.114842,"Belvedere Road 2, South Bank",0,38,38,false,300246,2016-10-13,
765,true,51.46760141,false,-0.20682737,"Ranelagh Gardens, Fulham",11,39,27,false,300064,2014-02-21,
699,true,51.5366541,false,-0.07023031,"Belford House, Haggerston",8,39,31,false,200057,2013-11-12,
496,true,51.52512,false,-0.015578,"Devons Road, Bow",0,39,35,false,200255,2012-01-24,
159,true,51.51461995,false,-0.137841333,"Great Marlborough Street, Soho",3,39,36,false,1125,2010-07-16,
495,true,51.528169,false,-0.018703,"Bow Church Station, Bow",0,39,36,false,200252,2012-01-23,
8,true,51.529857,false,-0.18348604,"Maida Vale, Maida Vale",0,39,38,false,3423,2018-10-31,
551,true,51.505772,false,-0.016460175,"Import Dock, Canary Wharf",0,39,38,false,200066,2012-02-24,
669,true,51.47614939,false,-0.1232585,"Teversham Lane, Stockwell",1,39,38,false,300036,2013-10-30,
492,true,51.525501,false,-0.032267204,"Maplin Street, Mile End",0,39,39,false,200230,2012-01-22,
614,true,51.47817208,false,-0.144690541,"Bradmead, Battersea Park",39,40,0,false,200025,2013-10-03,
228,true,51.50742485,false,-0.134621209,"St. James's Square, St. James's",30,40,9,false,1067,2010-07-20,
789,true,51.538718,false,-0.011889482,"Podium, Queen Elizabeth Olympic Park",6,40,25,false,300021,2016-01-11,
85,true,51.50064702,false,-0.078600401,"Tanner Street, Bermondsey",1,40,38,false,994,2010-07-13,
624,true,51.4729184,false,-0.132102704,"Courland Grove, Wandsworth Road",1,40,39,false,200173,2013-10-08,
674,true,51.53546778,false,-0.11619105,"Carnegie Street, King's Cross",1,40,39,false,300035,,
66,true,51.51795029,false,-0.108657431,"Holborn Circus, Holborn",0,40,40,false,982,2010-07-11,
266,true,51.50102668,false,-0.180246101,"Queen's Gate (North), Kensington",41,41,0,false,1204,2010-07-21,
564,true,51.509943,false,-0.117619,"Somerset House, Strand",8,41,23,false,200068,,
510,true,51.509303,false,-0.025996,"Westferry DLR, Limehouse",0,41,37,false,200238,,
309,true,51.50963123,false,-0.119047563,"Embankment (Savoy), Strand",3,41,38,false,1192,2010-07-23,
409,true,51.493146,false,-0.099828,"Strata, Elephant & Castle",1,41,38,false,10624,,
39,true,51.5263778,false,-0.078130921,"Shoreditch High Street, Shoreditch",1,41,39,false,3445,2010-07-08,
92,true,51.49889832,false,-0.100440521,"Borough Road, Elephant & Castle",1,41,39,false,1082,2010-07-13,
500,true,51.519806,false,-0.055731,"Ansell House, Stepney",0,41,39,false,200148,2012-01-24,
246,true,51.52285301,false,-0.099994052,"Berry Street, Clerkenwell",0,41,40,false,1159,2010-07-20,
364,true,51.519656,false,-0.132339,"Alfred Place, Bloomsbury",0,41,41,false,3507,2010-11-18,
390,true,51.521776,false,-0.068856,"Buxton Street 1, Shoreditch",0,41,41,false,1223,2011-02-15,
378,true,51.49559291,false,-0.179077626,"Natural History Museum, South Kensington",17,42,22,false,2677,2011-01-27,
498,true,51.527058,false,-0.025296,"Bow Road Station, Bow",2,42,38,false,200251,2012-01-24,
833,true,51.460232,false,-0.11537509,"Saltoun Road, Brixton",0,42,39,false,300206,2018-02-06,
249,true,51.49859784,false,-0.096191134,"Harper Road, The Borough",0,42,40,false,1137,2010-07-20,
282,true,51.51906446,false,-0.059642081,"Royal London Hospital, Whitechapel",2,42,40,false,1077,2010-07-21,
792,true,51.505461,false,-0.10454093,"Blackfriars Road, Southwark",0,42,40,false,300214,2016-02-08,
566,true,51.509158,false,-0.224103,"Westfield Ariel Way, White City",0,42,42,false,200141,2012-03-05,
222,true,51.50275704,false,-0.155349725,"Knightsbridge, Hyde Park",35,43,8,false,1101,2010-07-20,
619,true,51.4737636,false,-0.197010096,"Irene Road, Parsons Green",11,43,31,false,300012,2013-09-30,
717,true,51.53658514,false,-0.075885686,"Dunston Road , Haggerston",4,43,38,false,300024,2013-11-20,
32,true,51.52469624,false,-0.084439283,"Leonard Circus , Shoreditch",0,43,43,false,1020,2010-07-07,
427,true,51.51397065,false,-0.09294031,"Cheapside, Bank",0,43,43,false,22180,2011-07-15,
786,true,51.549369,false,-0.015717614,"Lee Valley VeloPark, Queen Elizabeth Olympic Park",2,44,40,false,300029,2016-01-04,
469,true,51.513757,false,-0.020467,"Lindfield Street, Poplar",0,44,41,false,22178,2012-01-12,
603,true,51.477839,false,-0.116493,"Caldwell Street, Stockwell",0,44,44,false,200137,,
718,true,51.53571683,false,-0.060291813,"Ada Street, Hackney Central",44,45,0,false,300040,2013-11-20,
462,true,51.541603,false,-0.138853,"Bonny Street, Camden Town",16,45,29,false,200105,2012-01-11,
491,true,51.522507,false,-0.041378,"Queen Mary's, Mile End",0,45,40,false,200249,2012-01-22,
549,true,51.49605,false,-0.104193,"Gaywood  Street, Elephant & Castle",1,45,43,false,200132,,
574,true,51.53356,false,-0.09315,"Eagle Wharf Road, Hoxton",1,45,44,false,200246,2012-04-05,
602,true,51.472993,false,-0.133972,"Union Grove, Wandsworth Road",0,45,44,false,200211,,
80,true,51.50069361,false,-0.102091246,"Webber Street , Southwark",0,45,45,false,3448,2010-07-12,
421,true,51.504044,false,-0.104778,"Southwark Station 2, Southwark",0,45,45,false,22163,2011-06-28,
490,true,51.508622,false,-0.065006,"Pennington Street, Wapping",0,45,45,false,200090,,
681,true,51.47303687,false,-0.214749808,"Bishop's Avenue, Fulham",32,46,14,false,200043,2013-11-06,
470,true,51.530535,false,-0.025492,"Mostyn Grove, Bow",3,46,41,false,200174,2012-01-17,
682,true,51.48810829,false,-0.22660621,"Crisp Road, Hammersmith",1,46,44,false,200059,2013-11-06,
269,true,51.50082346,false,-0.089740764,"Empire Square, The Borough",1,46,45,false,1209,2010-07-21,
144,true,51.48894022,false,-0.111435796,"Kennington Cross, Kennington",0,47,44,false,1093,2010-07-15,
365,true,51.530344,false,-0.100168,"City Road, Angel",0,47,46,false,2690,2010-11-24,
763,true,51.52059714,false,-0.032566533,"Mile End Park Leisure Centre, Mile End",1,47,46,false,300027,2014-02-10,
723,true,51.46822047,false,-0.190346493,"Stephendale Road, Sands End",0,48,44,false,300053,2013-11-21,
14,true,51.52994371,false,-0.123616824,"Belgrove Street , King's Cross",1,48,46,false,1011,2010-07-05,
12,true,51.52168078,false,-0.130431727,"Malet Street, Bloomsbury",1,49,48,false,980,2010-07-05,
25,true,51.5288338,false,-0.132250369,"Doric Way , Somers Town",6,50,44,false,1004,2010-07-06,
247,true,51.530529,false,-0.167515,"St. John's Wood Church, The Regent's Park",0,50,49,false,1091,2010-07-20,
547,true,51.509474,false,-0.002275,"East India DLR, Blackwall",3,51,47,false,200127,,
175,true,51.521668,false,-0.079608554,"Worship Street, Shoreditch",0,51,49,false,997,2018-06-22,
513,true,51.5142228,false,-0.055656,"Watney Market, Stepney",0,51,51,false,200162,,
126,true,51.51782144,false,-0.096496865,"Museum of London, Barbican",0,52,52,false,1043,2010-07-15,
98,true,51.52554222,false,-0.138231303,"Hampstead Road, Euston",26,54,28,false,972,2010-07-14,
447,true,51.493381,false,-0.007542,"Jubilee Crescent, Cubitt Town",0,54,51,false,200054,2012-01-07,
215,true,51.51906932,false,-0.088285377,"Moorfields, Moorgate",0,54,54,false,1092,2010-07-19,
361,true,51.50391973,false,-0.11342629,"Waterloo Station 2, Waterloo",0,55,55,false,2692,2010-12-09,
194,true,51.50462759,false,-0.091773776,"Hop Exchange, The Borough",3,56,50,false,960,2010-07-17,
671,true,51.475089,false,-0.201968,"Parsons Green Station, Parsons Green",2,56,53,false,300052,2013-10-31,
362,true,51.536264,false,-0.133952,"Royal College Street, Camden Town",22,57,35,false,2686,2010-11-18,
109,true,51.51563144,false,-0.132328837,"Soho Square , Soho",2,57,53,false,1052,2010-07-14,
193,true,51.50581776,false,-0.100186337,"Bankside Mix, Bankside",1,60,56,false,963,2010-07-17,
532,true,51.50357,false,-0.020068,"Jubilee Plaza, Canary Wharf",2,63,60,false,200163,2012-02-10,
785,true,51.54094,false,-0.010510565,"Aquatic Centre, Queen Elizabeth Olympic Park",6,64,51,false,300233,2016-01-04,
410,true,51.519968,false,-0.169774,"Edgware Road Station, Marylebone",1,64,63,false,1058,,
